{"@odata.context":"/redfish/v1/$metadata#Blade.Blade","@odata.type":"#Blade.Blade","@odata.id":"/redfish/v1/Chassis/1/Blade","Id":"Blade","Name":"Blade","Members":[{"@odata.id":"/redfish/v1/Chassis/1/Blade/1","Name":"Blade A1","Location":"Blade A1","State":"Present"},{"@odata.id":"/redfish/v1/Chassis/1/Blade/2","Name":"Blade A2","Location":"Blade A2","State":"Present"},{"@odata.id":"/redfish/v1/Chassis/1/Blade/3","Name":"Blade A3","Location":"Blade A3","State":"Present"},{"@odata.id":"/redfish/v1/Chassis/1/Blade/4","Name":"Blade A4","Location":"Blade A4","State":"Present"},{"@odata.id":"/redfish/v1/Chassis/1/Blade/5","Name":"Blade A5","Location":"Blade A5","State":"Present"},{"@odata.id":"/redfish/v1/Chassis/1/Blade/6","Name":"Blade A6","Location":"Blade A6","State":"Present"},{"@odata.id":"/redfish/v1/Chassis/1/Blade/7","Name":"Blade A7","Location":"Blade A7","State":"Present"},{"@odata.id":"/redfish/v1/Chassis/1/Blade/8","Name":"Blade A8","Location":"Blade A8","State":"Present"},{"@odata.id":"/redfish/v1/Chassis/1/Blade/9","Name":"Blade A9","Location":"Blade A9","State":"Present"},{"@odata.id":"/redfish/v1/Chassis/1/Blade/10","Name":"Blade A10","Location":"Blade A10","State":"Present"}]}